[
    {
        "id": 1145,
        "country_abbrev": "ES",
        "country_id": 28,
        "province_name": "Murcia",
        "province_abbrev": "MU",
        "community_name": "Murcia,RegióndeMurcia",
        "Community_Abbrev": "MC",
        "latitude": 37.9922805,
        "longitude": -1.1305169
    },
    {
        "id": 1146,
        "country_abbrev": "ES",
        "country_id": 28,
        "province_name": "Burgos",
        "province_abbrev": "BU",
        "community_name": "CastillayLeón",
        "Community_Abbrev": "CL",
        "latitude": 42.3380758,
        "longitude": -3.5812692
    },
    {
        "id": 1147,
        "country_abbrev": "ES",
        "country_id": 28,
        "province_name": "Salamanca",
        "province_abbrev": "SA",
        "community_name": "CastillayLeón",
        "Community_Abbrev": "CL",
        "latitude": 40.9515263,
        "longitude": -6.2375947
    },
    {
        "id": 1148,
        "country_abbrev": "ES",
        "country_id": 28,
        "province_name": "Álava/Araba(eu)",
        "province_abbrev": "VI",
        "community_name": "EuskalHerria(eu)[PaísVasco]",
        "Community_Abbrev": "PV",
        "latitude": 42.9099989,
        "longitude": -2.6983868
    },
    {
        "id": 1149,
        "country_abbrev": "ES",
        "country_id": 28,
        "province_name": "Madrid",
        "province_abbrev": "M",
        "community_name": "Madrid,ComunidaddeMadrid",
        "Community_Abbrev": "MD",
        "latitude": 40.4162883,
        "longitude": -3.7033725
    },
    {
        "id": 1150,
        "country_abbrev": "ES",
        "country_id": 28,
        "province_name": "CiudadReal",
        "province_abbrev": "CR",
        "community_name": "Castilla-LaMancha",
        "Community_Abbrev": "CM",
        "latitude": 38.9848435,
        "longitude": -3.9273982
    },
    {
        "id": 1151,
        "country_abbrev": "ES",
        "country_id": 28,
        "province_name": "Almería",
        "province_abbrev": "AL",
        "community_name": "Andalucía",
        "Community_Abbrev": "AN",
        "latitude": 37.1035929,
        "longitude": -2.302446
    },
    {
        "id": 1152,
        "country_abbrev": "ES",
        "country_id": 28,
        "province_name": "Valencia/València(ca)",
        "province_abbrev": "V",
        "community_name": "Valenciana,Comunitat(ca)[Valenciana,Comunidad]",
        "Community_Abbrev": "VC",
        "latitude": 39.4840108,
        "longitude": -0.7532809
    },
    {
        "id": 1153,
        "country_abbrev": "ES",
        "country_id": 28,
        "province_name": "Badajoz",
        "province_abbrev": "BA",
        "community_name": "Extremadura",
        "Community_Abbrev": "EX",
        "latitude": 38.8801136,
        "longitude": -6.9702093
    },
    {
        "id": 1154,
        "country_abbrev": "ES",
        "country_id": 28,
        "province_name": "Pontevedra (gl)[Pontevedra]",
        "province_abbrev": "PO",
        "community_name": "Galicia (gl)[Galicia]",
        "Community_Abbrev": "GA",
        "latitude": 42.429901,
        "longitude": -8.6446218
    },
    {
        "id": 1155,
        "country_abbrev": "ES",
        "country_id": 28,
        "province_name": "Sevilla",
        "province_abbrev": "SE",
        "community_name": "Andalucía",
        "Community_Abbrev": "AN",
        "latitude": 37.3376829,
        "longitude": -5.5617279
    },
    {
        "id": 1156,
        "country_abbrev": "ES",
        "country_id": 28,
        "province_name": "Alicante/Alacant(ca)",
        "province_abbrev": "A",
        "community_name": "Valenciana,Comunitat(ca)[Valenciana,Comunidad]",
        "Community_Abbrev": "VC",
        "latitude": 38.3460627,
        "longitude": -0.4907945
    },
    {
        "id": 1157,
        "country_abbrev": "ES",
        "country_id": 28,
        "province_name": "Palencia",
        "province_abbrev": "P",
        "community_name": "CastillayLeón",
        "Community_Abbrev": "CL",
        "latitude": 42.0096832,
        "longitude": -4.5287949
    },
    {
        "id": 1159,
        "country_abbrev": "ES",
        "country_id": 28,
        "province_name": "Melilla",
        "province_abbrev": "ML",
        "community_name": "Melilla",
        "Community_Abbrev": "ME",
        "latitude": 35.2922775,
        "longitude": -2.9380973
    },
    {
        "id": 1160,
        "country_abbrev": "ES",
        "country_id": 28,
        "province_name": "Asturias",
        "province_abbrev": "O",
        "community_name": "Asturias",
        "Community_Abbrev": "AS",
        "latitude": 43.3613953,
        "longitude": -5.8593267
    },
    {
        "id": 1161,
        "country_abbrev": "ES",
        "country_id": 28,
        "province_name": "Zamora",
        "province_abbrev": "ZA",
        "community_name": "CastillayLeón",
        "Community_Abbrev": "CL",
        "latitude": 41.6095744,
        "longitude": -5.8987139
    },
    {
        "id": 1162,
        "country_abbrev": "ES",
        "country_id": 28,
        "province_name": "Zaragoza",
        "province_abbrev": "Z",
        "community_name": "Aragón",
        "Community_Abbrev": "AR",
        "latitude": 41.6488201,
        "longitude": -0.8890616
    },
    {
        "id": 1163,
        "country_abbrev": "ES",
        "country_id": 28,
        "province_name": "Huesca",
        "province_abbrev": "HU",
        "community_name": "Aragón",
        "Community_Abbrev": "AR",
        "latitude": 42.1361842,
        "longitude": -0.4082191
    },
    {
        "id": 1164,
        "country_abbrev": "ES",
        "country_id": 28,
        "province_name": "Tarragona (ca)[Tarragona]",
        "province_abbrev": "T",
        "community_name": "Catalunya (ca)[Cataluña]",
        "Community_Abbrev": "CT",
        "latitude": 41.1188343,
        "longitude": 1.2444774
    },
    {
        "id": 1165,
        "country_abbrev": "ES",
        "country_id": 28,
        "province_name": "Toledo",
        "province_abbrev": "TO",
        "community_name": "Castilla-LaMancha",
        "Community_Abbrev": "CM",
        "latitude": 39.8628165,
        "longitude": -4.0273279
    },
    {
        "id": 1166,
        "country_abbrev": "ES",
        "country_id": 28,
        "province_name": "LasPalmas",
        "province_abbrev": "GC",
        "community_name": "Canarias",
        "Community_Abbrev": "CN",
        "latitude": 28.12370553,
        "longitude": -15.43631118
    },
    {
        "id": 1168,
        "country_abbrev": "ES",
        "country_id": 28,
        "province_name": "Albacete",
        "province_abbrev": "AB",
        "community_name": "Castilla-LaMancha",
        "Community_Abbrev": "CM",
        "latitude": 38.8036957,
        "longitude": -1.9881527
    },
    {
        "id": 1169,
        "country_abbrev": "ES",
        "country_id": 28,
        "province_name": "Cuenca",
        "province_abbrev": "CU",
        "community_name": "Castilla-LaMancha",
        "Community_Abbrev": "CM",
        "latitude": 39.7939904,
        "longitude": -2.302446
    },
    {
        "id": 1170,
        "country_abbrev": "ES",
        "country_id": 28,
        "province_name": "Cantabria",
        "province_abbrev": "S",
        "community_name": "Cantabria",
        "Community_Abbrev": "CB",
        "latitude": 43.1828396,
        "longitude": -3.9878427
    },
    {
        "id": 1171,
        "country_abbrev": "ES",
        "country_id": 28,
        "province_name": "LaRioja",
        "province_abbrev": "LO",
        "community_name": "LaRioja",
        "Community_Abbrev": "RI",
        "latitude": 42.2870733,
        "longitude": -2.539603
    },
    {
        "id": 1172,
        "country_abbrev": "ES",
        "country_id": 28,
        "province_name": "Guadalajara",
        "province_abbrev": "GU",
        "community_name": "Castilla-LaMancha",
        "Community_Abbrev": "CM",
        "latitude": 40.6324761,
        "longitude": -3.16017
    },
    {
        "id": 1173,
        "country_abbrev": "ES",
        "country_id": 28,
        "province_name": "Ourense (gl)[Orense]",
        "province_abbrev": "OR",
        "community_name": "Galicia (gl)[Galicia]",
        "Community_Abbrev": "GA",
        "latitude": 42.3358175,
        "longitude": -7.8640631
    },
    {
        "id": 1174,
        "country_abbrev": "ES",
        "country_id": 28,
        "province_name": "IllesBalears (ca)[IslasBaleares]",
        "province_abbrev": "PM",
        "community_name": "IllesBalears (ca)[IslasBaleares]",
        "Community_Abbrev": "IB",
        "latitude": 39.3587759,
        "longitude": 2.7356328
    },
    {
        "id": 1178,
        "country_abbrev": "ES",
        "country_id": 28,
        "province_name": "Girona (ca)[Gerona]",
        "province_abbrev": "GI",
        "community_name": "Catalunya (ca)[Cataluña]",
        "Community_Abbrev": "CT",
        "latitude": 42.0407088,
        "longitude": 2.9375739
    },
    {
        "id": 1179,
        "country_abbrev": "ES",
        "country_id": 28,
        "province_name": "ACoruña (gl)[LaCoruña]",
        "province_abbrev": "C",
        "community_name": "Galicia (gl)[Galicia]",
        "Community_Abbrev": "GA",
        "latitude": 43.3623364,
        "longitude": -8.411594
    },
    {
        "id": 1180,
        "country_abbrev": "ES",
        "country_id": 28,
        "province_name": "Barcelona (ca)[Barcelona]",
        "province_abbrev": "B",
        "community_name": "Catalunya (ca)[Cataluña]",
        "Community_Abbrev": "CT",
        "latitude": 41.3850477,
        "longitude": 2.1733131
    },
    {
        "id": 1181,
        "country_abbrev": "ES",
        "country_id": 28,
        "province_name": "Jaén",
        "province_abbrev": "J",
        "community_name": "Andalucía",
        "Community_Abbrev": "AN",
        "latitude": 37.7795594,
        "longitude": -3.7849716
    },
    {
        "id": 1182,
        "country_abbrev": "ES",
        "country_id": 28,
        "province_name": "Teruel",
        "province_abbrev": "TE",
        "community_name": "Aragón",
        "Community_Abbrev": "AR",
        "latitude": 40.345735,
        "longitude": -1.1064242
    },
    {
        "id": 1183,
        "country_abbrev": "ES",
        "country_id": 28,
        "province_name": "Valladolid",
        "province_abbrev": "VA",
        "community_name": "CastillayLeón",
        "Community_Abbrev": "CL",
        "latitude": 41.6517375,
        "longitude": -4.724495
    },
    {
        "id": 1186,
        "country_abbrev": "ES",
        "country_id": 28,
        "province_name": "Vizcaya/Bizkaia (eu)",
        "province_abbrev": "BI",
        "community_name": "EuskalHerria(eu)[PaísVasco]",
        "Community_Abbrev": "PV",
        "latitude": 43.2204286,
        "longitude": -2.6983868
    },
    {
        "id": 1187,
        "country_abbrev": "ES",
        "country_id": 28,
        "province_name": "Lugo (gl)[Lugo]",
        "province_abbrev": "LU",
        "community_name": "Galicia (gl)[Galicia]",
        "Community_Abbrev": "GA",
        "latitude": 43.0764348,
        "longitude": -7.6114217
    },
    {
        "id": 1188,
        "country_abbrev": "ES",
        "country_id": 28,
        "province_name": "Málaga",
        "province_abbrev": "MA",
        "community_name": "Andalucía",
        "Community_Abbrev": "AN",
        "latitude": 36.7211113,
        "longitude": -4.4210306
    },
    {
        "id": 1189,
        "country_abbrev": "ES",
        "country_id": 28,
        "province_name": "Ávila",
        "province_abbrev": "AV",
        "community_name": "CastillayLeón",
        "Community_Abbrev": "CL",
        "latitude": 40.6934511,
        "longitude": -4.8935627
    },
    {
        "id": 1192,
        "country_abbrev": "ES",
        "country_id": 28,
        "province_name": "Segovia",
        "province_abbrev": "SG",
        "community_name": "CastillayLeón",
        "Community_Abbrev": "CL",
        "latitude": 40.9429296,
        "longitude": -4.1088942
    },
    {
        "id": 1194,
        "country_abbrev": "ES",
        "country_id": 28,
        "province_name": "Granada",
        "province_abbrev": "GR",
        "community_name": "Andalucía",
        "Community_Abbrev": "AN",
        "latitude": 37.1772794,
        "longitude": -3.5986525
    },
    {
        "id": 1195,
        "country_abbrev": "ES",
        "country_id": 28,
        "province_name": "Lleida (ca)[Lérida]",
        "province_abbrev": "L",
        "community_name": "Catalunya (ca)[Cataluña]",
        "Community_Abbrev": "CT",
        "latitude": 42.073315,
        "longitude": 1.0586135
    },
    {
        "id": 1196,
        "country_abbrev": "ES",
        "country_id": 28,
        "province_name": "Cáceres",
        "province_abbrev": "CC",
        "community_name": "Extremadura",
        "Community_Abbrev": "EX",
        "latitude": 39.4752934,
        "longitude": -6.3725
    },
    {
        "id": 1197,
        "country_abbrev": "ES",
        "country_id": 28,
        "province_name": "Córdoba",
        "province_abbrev": "CO",
        "community_name": "Andalucía",
        "Community_Abbrev": "AN",
        "latitude": -31.4354727,
        "longitude": -64.2009018
    },
    {
        "id": 1198,
        "country_abbrev": "ES",
        "country_id": 28,
        "province_name": "SantaCruzdeTenerife",
        "province_abbrev": "TF",
        "community_name": "Canarias",
        "Community_Abbrev": "CN",
        "latitude": 28.4636296,
        "longitude": -16.2518467
    },
    {
        "id": 1199,
        "country_abbrev": "ES",
        "country_id": 28,
        "province_name": "Huelva",
        "province_abbrev": "H",
        "community_name": "Andalucía",
        "Community_Abbrev": "AN",
        "latitude": 37.6060122,
        "longitude": -6.9209135
    },
    {
        "id": 1200,
        "country_abbrev": "ES",
        "country_id": 28,
        "province_name": "León",
        "province_abbrev": "LE",
        "community_name": "CastillayLeón",
        "Community_Abbrev": "CL",
        "latitude": 42.5987041,
        "longitude": -5.5670839
    },
    {
        "id": 1201,
        "country_abbrev": "ES",
        "country_id": 28,
        "province_name": "Cádiz",
        "province_abbrev": "CA",
        "community_name": "Andalucía",
        "Community_Abbrev": "AN",
        "latitude": 36.6361857,
        "longitude": -5.8987139
    },
    {
        "id": 1202,
        "country_abbrev": "ES",
        "country_id": 28,
        "province_name": "Gipuzkoa (eu)",
        "province_abbrev": "SS",
        "community_name": "EuskalHerria(eu)[PaísVasco]",
        "Community_Abbrev": "PV",
        "latitude": 43.0756299,
        "longitude": -2.2236667
    },
    {
        "id": 1204,
        "country_abbrev": "ES",
        "country_id": 28,
        "province_name": "Navarra/Nafarroa(eu)",
        "province_abbrev": "NA",
        "community_name": "Navarra",
        "Community_Abbrev": "NC",
        "latitude": 42.6953909,
        "longitude": -1.6760691
    },
    {
        "id": 1206,
        "country_abbrev": "ES",
        "country_id": 28,
        "province_name": "Ceuta",
        "province_abbrev": "CE",
        "community_name": "Ceuta",
        "Community_Abbrev": "CE",
        "latitude": 35.8893874,
        "longitude": -5.3213455
    },
    {
        "id": 1207,
        "country_abbrev": "ES",
        "country_id": 28,
        "province_name": "Castellón/Castelló(ca)",
        "province_abbrev": "CS",
        "community_name": "Valenciana,Comunitat(ca)[Valenciana,Comunidad]",
        "Community_Abbrev": "VC",
        "latitude": 40.1451772,
        "longitude": -0.1494988
    },
    {
        "id": 1208,
        "country_abbrev": "ES",
        "country_id": 28,
        "province_name": "Soria",
        "province_abbrev": "SO",
        "community_name": "CastillayLeón",
        "Community_Abbrev": "CL",
        "latitude": 41.7665464,
        "longitude": -2.4790306
    },
    {
        "id": 2235,
        "country_abbrev": "PT",
        "country_id": 177,
        "province_name": "Aveiro",
        "province_abbrev": "1",
        "community_name": "Centro(Norte)",
        "Community_Abbrev": "C(N)",
        "latitude": 40.7209023,
        "longitude": -8.5721016
    },
    {
        "id": 2230,
        "country_abbrev": "PT",
        "country_id": 177,
        "province_name": "Beja",
        "province_abbrev": "2",
        "community_name": "Alentejo",
        "Community_Abbrev": "Ale",
        "latitude": 37.9687786,
        "longitude": -7.87216
    },
    {
        "id": 2244,
        "country_abbrev": "PT",
        "country_id": 177,
        "province_name": "Braga",
        "province_abbrev": "3",
        "community_name": "Norte",
        "Community_Abbrev": "N",
        "latitude": 41.550388,
        "longitude": -8.4261301
    },
    {
        "id": 2229,
        "country_abbrev": "PT",
        "country_id": 177,
        "province_name": "Bragança",
        "province_abbrev": "4",
        "community_name": "Norte",
        "Community_Abbrev": "N",
        "latitude": 41.8061652,
        "longitude": -6.7567427
    },
    {
        "id": 2241,
        "country_abbrev": "PT",
        "country_id": 177,
        "province_name": "CasteloBranco",
        "province_abbrev": "5",
        "community_name": "Centro",
        "Community_Abbrev": "C",
        "latitude": 39.8631323,
        "longitude": -7.4814163
    },
    {
        "id": 2246,
        "country_abbrev": "PT",
        "country_id": 177,
        "province_name": "Coimbra",
        "province_abbrev": "6",
        "community_name": "Centro",
        "Community_Abbrev": "C",
        "latitude": 40.2057994,
        "longitude": -8.41369
    },
    {
        "id": 2236,
        "country_abbrev": "PT",
        "country_id": 177,
        "province_name": "Évora",
        "province_abbrev": "7",
        "community_name": "Alentejo",
        "Community_Abbrev": "Ale",
        "latitude": 38.5744468,
        "longitude": -7.9076553
    },
    {
        "id": 2239,
        "country_abbrev": "PT",
        "country_id": 177,
        "province_name": "Faro",
        "province_abbrev": "8",
        "community_name": "Algarve",
        "Community_Abbrev": "Alg",
        "latitude": 37.0193548,
        "longitude": -7.9304397
    },
    {
        "id": 4859,
        "country_abbrev": "PT",
        "country_id": 177,
        "province_name": "Guarda",
        "province_abbrev": "9",
        "community_name": "Centro(Norte)",
        "Community_Abbrev": "C(N)",
        "latitude": 40.5385972,
        "longitude": -7.2675772
    },
    {
        "id": 2240,
        "country_abbrev": "PT",
        "country_id": 177,
        "province_name": "Leiria",
        "province_abbrev": "10",
        "community_name": "Centro(Lisboa)",
        "Community_Abbrev": "C(L)",
        "latitude": 39.7709532,
        "longitude": -8.7921836
    },
    {
        "id": 2228,
        "country_abbrev": "PT",
        "country_id": 177,
        "province_name": "Lisbon",
        "province_abbrev": "11",
        "community_name": "Lisboa",
        "Community_Abbrev": "L",
        "latitude": 38.7223263,
        "longitude": -9.1392714
    },
    {
        "id": 2232,
        "country_abbrev": "PT",
        "country_id": 177,
        "province_name": "Portalegre",
        "province_abbrev": "12",
        "community_name": "Alentejo(Lisboa)",
        "Community_Abbrev": "Ale(L)",
        "latitude": 39.2967086,
        "longitude": -7.4284755
    },
    {
        "id": 2243,
        "country_abbrev": "PT",
        "country_id": 177,
        "province_name": "Porto",
        "province_abbrev": "13",
        "community_name": "Norte",
        "Community_Abbrev": "N",
        "latitude": 41.1476629,
        "longitude": -8.6078973
    },
    {
        "id": 2238,
        "country_abbrev": "PT",
        "country_id": 177,
        "province_name": "Santarém",
        "province_abbrev": "14",
        "community_name": "Lisboa(Centro)",
        "Community_Abbrev": "L(C)",
        "latitude": 39.2366687,
        "longitude": -8.6859944
    },
    {
        "id": 2242,
        "country_abbrev": "PT",
        "country_id": 177,
        "province_name": "Setúbal",
        "province_abbrev": "15",
        "community_name": "Lisboa",
        "Community_Abbrev": "L",
        "latitude": 38.5240933,
        "longitude": -8.8925876
    },
    {
        "id": 2245,
        "country_abbrev": "PT",
        "country_id": 177,
        "province_name": "VianadoCastelo",
        "province_abbrev": "16",
        "community_name": "Norte",
        "Community_Abbrev": "N",
        "latitude": 41.6918046,
        "longitude": -8.834451
    },
    {
        "id": 2234,
        "country_abbrev": "PT",
        "country_id": 177,
        "province_name": "VilaReal",
        "province_abbrev": "17",
        "community_name": "Norte",
        "Community_Abbrev": "N",
        "latitude": 41.3003527,
        "longitude": -7.7457274
    },
    {
        "id": 2237,
        "country_abbrev": "PT",
        "country_id": 177,
        "province_name": "Viseu",
        "province_abbrev": "18",
        "community_name": "Centro(Norte)",
        "Community_Abbrev": "C(N)",
        "latitude": 40.6588424,
        "longitude": -7.914756
    },
    {
        "id": 2233,
        "country_abbrev": "PT",
        "country_id": 177,
        "province_name": "Azores",
        "province_abbrev": "20",
        "community_name": "Açores",
        "Community_Abbrev": "Aç",
        "latitude": 37.7412488,
        "longitude": -25.6755944
    },
    {
        "id": 2231,
        "country_abbrev": "PT",
        "country_id": 177,
        "province_name": "Madeira",
        "province_abbrev": "30",
        "community_name": "Madeira",
        "Community_Abbrev": "M",
        "latitude": 32.7607074,
        "longitude": -16.9594723
    },
    {
        "id": 489,
        "country_abbrev": "AD",
        "country_id": 6,
        "province_name": "Canillo",
        "province_abbrev": "2",
        "community_name": "-",
        "Community_Abbrev": "-",
        "latitude": 42.5978249,
        "longitude": 1.6566377
    },
    {
        "id": 487,
        "country_abbrev": "AD",
        "country_id": 6,
        "province_name": "Encamp",
        "province_abbrev": "3",
        "community_name": "-",
        "Community_Abbrev": "-",
        "latitude": 42.5359764,
        "longitude": 1.5836773
    },
    {
        "id": 493,
        "country_abbrev": "AD",
        "country_id": 6,
        "province_name": "LaMassana",
        "province_abbrev": "4",
        "community_name": "-",
        "Community_Abbrev": "-",
        "latitude": 42.545625,
        "longitude": 1.5147392
    },
    {
        "id": 491,
        "country_abbrev": "AD",
        "country_id": 6,
        "province_name": "Ordino",
        "province_abbrev": "5",
        "community_name": "-",
        "Community_Abbrev": "-",
        "latitude": 42.5994433,
        "longitude": 1.5402327
    },
    {
        "id": 490,
        "country_abbrev": "AD",
        "country_id": 6,
        "province_name": "SantJuliàdeLòria",
        "province_abbrev": "6",
        "community_name": "-",
        "Community_Abbrev": "-",
        "latitude": 42.4529631,
        "longitude": 1.4918235
    },
    {
        "id": 488,
        "country_abbrev": "AD",
        "country_id": 6,
        "province_name": "AndorralaVella",
        "province_abbrev": "7",
        "community_name": "-",
        "Community_Abbrev": "-",
        "latitude": 42.5063174,
        "longitude": 1.5218355
    },
    {
        "id": 492,
        "country_abbrev": "AD",
        "country_id": 6,
        "province_name": "Escaldes-Engordany",
        "province_abbrev": "8",
        "community_name": "-",
        "Community_Abbrev": "-",
        "latitude": 42.4909379,
        "longitude": 1.5886966
    },
    {
        "id": 500,
        "country_abbrev": "GI",
        "country_id": 84,
        "province_name": "EastSide",
        "province_abbrev": "1",
        "community_name": "-",
        "Community_Abbrev": "-",
        "latitude": 36.13925920875745,
        "longitude": -5.341572329680504
    },
    {
        "id": 501,
        "country_abbrev": "GI",
        "country_id": 84,
        "province_name": "NorthDistrict",
        "province_abbrev": "2",
        "community_name": "-",
        "Community_Abbrev": "-",
        "latitude": 36.14754356964306,
        "longitude": -5.35013187570075
    },
    {
        "id": 502,
        "country_abbrev": "GI",
        "country_id": 84,
        "province_name": "ReclamationAreas",
        "province_abbrev": "3",
        "community_name": "-",
        "Community_Abbrev": "-",
        "latitude": 36.14580260444519,
        "longitude": -5.358728045018892
    },
    {
        "id": 503,
        "country_abbrev": "GI",
        "country_id": 84,
        "province_name": "SandpitsArea",
        "province_abbrev": "4",
        "community_name": "-",
        "Community_Abbrev": "-",
        "latitude": 36.14580260444519,
        "longitude": -5.358728045018892
    },
    {
        "id": 504,
        "country_abbrev": "GI",
        "country_id": 84,
        "province_name": "SouthDistrict",
        "province_abbrev": "5",
        "community_name": "-",
        "Community_Abbrev": "-",
        "latitude": 36.1129314986278,
        "longitude": -5.347850506400893
    },
    {
        "id": 505,
        "country_abbrev": "GI",
        "country_id": 84,
        "province_name": "TownArea",
        "province_abbrev": "6",
        "community_name": "-",
        "Community_Abbrev": "-",
        "latitude": 36.12465194111314,
        "longitude": -5.349434499004822
    },
    {
        "id": 506,
        "country_abbrev": "GI",
        "country_id": 84,
        "province_name": "UpperTown",
        "province_abbrev": "7",
        "community_name": "-",
        "Community_Abbrev": "-",
        "latitude": 36.13435661277163,
        "longitude": -5.3518586296829005
    },
    {
        "id": 506,
        "country_abbrev": "GI",
        "country_id": 84,
        "province_name": "OtraDistinta",
        "province_abbrev": "8",
        "community_name": "-",
        "Community_Abbrev": "-",
        "latitude": 36.13435661277163,
        "longitude": -5.3518586296829005
    }
]